{"NLBZM":
	{"city":"Bergen op Zoom","latitude":"51.4965864","longitude":"4.28974079726371"}, 
"NLMOE":
	{"city":"Moerdijk","latitude":"51.7033761","longitude":"4.6259107"}, 
"NLRTM":
	{"city":"Rotterdam","latitude":"51.9278469","longitude":"4.488595403701719"}, 
"NLRID":
	{"city":"Ridderkerk","latitude":"51.87099129999999","longitude":"4.5926478974853495"}, 
"BEANR":
	{"city":"Antwerp","latitude":"51.2211097","longitude":"4.3997081"}
}